,City ID,City,Country,Lat,Lng,Temperature,Humidity,Clouds,Wind Speed
0,2112802,Hasaki,JP,35.7333,140.8333,81.07,80,21,23.73
1,3981432,Todos Santos,MX,23.45,-110.2167,78.17,85,3,7.27
2,933366,Maun,BW,-19.9833,23.4167,44.56,70,0,4.61
3,552465,Kargopol',RU,61.5071,38.9456,50.83,82,94,3.36
4,4031574,Provideniya,RU,64.3833,-173.3,50.11,81,90,11.18
5,2022572,Khatanga,RU,71.9667,102.5,76.33,48,96,17.78
6,4676740,Brownsville,US,25.9018,-97.4975,80.47,81,1,3.0
7,964432,Port Alfred,ZA,-33.5906,26.891,61.45,31,30,11.21
8,2122493,Omsukchan,RU,62.5333,155.8,51.69,81,100,4.81
9,5563839,Fortuna,US,40.5982,-124.1573,54.82,92,90,1.01
10,1006984,East London,ZA,-33.0153,27.9116,58.14,35,0,5.75
11,2264557,Ponta do Sol,PT,32.6667,-17.1,71.35,70,1,4.83
12,4033356,Tiarei,PF,-17.5333,-149.3333,80.62,73,38,4.85
13,2178174,Albury,AU,-36.0833,146.9167,61.41,60,42,10.36
14,1501377,Kungurtug,RU,50.5994,97.5228,63.54,79,99,3.51
15,3346821,Ondjiva,AO,-17.0667,15.7333,48.34,45,10,7.36
16,4030556,Rikitea,PF,-23.1203,-134.9692,74.91,79,99,18.63
17,5122534,Jamestown,US,42.097,-79.2353,66.69,76,1,3.0
18,6050066,La Ronge,CA,55.1001,-105.2842,66.45,59,20,4.61
19,3095192,Koronowo,PL,53.3137,17.937,64.4,91,73,4.14
20,2013348,Vladivostok,RU,43.1056,131.8735,86.02,78,12,9.98
21,110690,Faya,SA,18.3851,42.4509,61.32,65,86,3.49
22,1486321,Yar-Sale,RU,66.8333,70.8333,56.23,54,69,7.38
23,3874787,Punta Arenas,CL,-53.15,-70.9167,39.31,87,75,6.91
24,546105,Nikolskoye,RU,59.7035,30.7861,63.57,62,8,3.24
25,2155415,New Norfolk,AU,-42.7826,147.0587,58.06,58,69,5.01
26,2110227,Butaritari,KI,3.0707,172.7902,82.02,74,35,4.21
27,1282256,Hithadhoo,MV,-0.6,73.0833,81.25,74,100,5.86
28,162158,Baharly,TM,38.4362,57.4316,92.79,22,0,4.18
29,2013465,Verkhoyansk,RU,67.5447,133.385,60.87,64,85,16.15
30,2444995,Filingué,NE,14.3521,3.3168,81.81,67,100,14.99
31,1214488,Meulaboh,ID,4.1363,96.1285,84.96,67,69,3.15
32,4231997,Avera,US,33.194,-82.5271,77.9,74,47,5.17
33,3412093,Vestmannaeyjar,IS,63.4427,-20.2734,50.43,79,100,12.77
34,921786,Mitsamiouli,KM,-11.3847,43.2844,75.33,68,8,7.94
35,2075265,Busselton,AU,-33.65,115.3333,57.04,57,96,25.19
36,1106677,Bambous Virieux,MU,-20.3428,57.7575,70.05,83,40,11.5
37,3430863,Mar del Plata,AR,-38.0023,-57.5575,37.78,57,40,11.01
38,5468773,Gallup,US,35.5281,-108.7426,70.07,61,20,1.01
39,5848280,Kapaa,US,22.0752,-159.319,80.17,76,1,3.0
40,5855927,Hilo,US,19.7297,-155.09,76.1,86,90,11.5
41,3056380,Ágfalva,HU,47.6899,16.5166,66.7,76,51,2.73
42,582447,Almaznyy,RU,48.0448,40.045,69.94,48,56,8.55
43,6201424,Mataura,NZ,-46.1927,168.8643,52.48,74,21,3.47
44,4032243,Vaini,TO,-21.2,-175.2,77.16,78,75,12.66
45,3833367,Ushuaia,AR,-54.8,-68.3,33.46,93,75,4.61
46,6255012,Flinders,AU,-34.5833,150.8552,70.38,44,2,8.99
47,2439155,Tanout,NE,14.9709,8.8879,74.95,71,100,13.69
48,2015306,Tiksi,RU,71.6872,128.8694,37.74,87,85,10.2
49,2033196,Zhangjiakou,CN,40.81,114.8794,79.63,57,100,3.69
50,2175819,Biloela,AU,-24.4167,150.5,75.06,29,0,6.71
51,3366880,Hermanus,ZA,-34.4187,19.2345,46.8,68,1,11.18
52,3614835,Barra Patuca,HN,15.8,-84.2833,79.68,81,3,8.59
53,2246901,Oussouye,SN,12.485,-16.5469,80.78,83,78,6.38
54,1516589,Zhezkazgan,KZ,47.8043,67.7144,71.8,28,0,10.74
55,4726521,San Patricio,US,28.017,-97.5169,80.92,74,3,8.21
56,4021858,Guerrero Negro,MX,27.9769,-114.0611,68.56,81,0,14.36
57,3440777,Rocha,UY,-34.4833,-54.3333,42.51,92,8,6.31
58,1337618,Manadhoo,MV,5.7667,73.3833,81.7,78,96,15.7
59,1015776,Bredasdorp,ZA,-34.5322,20.0403,45.72,81,4,5.75
60,3374235,Sal Rei,CV,16.1833,-22.9167,75.76,81,7,13.24
61,3663475,Maraã,BR,-1.8333,-65.3667,73.33,92,92,3.29
62,935215,Saint-Philippe,RE,-21.3585,55.7679,65.79,83,87,9.89
63,934649,Cap Malheureux,MU,-19.9842,57.6142,67.46,88,77,4.0
64,1160939,Iranshahr,IR,27.2025,60.6848,91.74,25,91,4.61
65,962367,Richards Bay,ZA,-28.783,32.0377,59.58,62,16,15.03
66,2180815,Tuatapere,NZ,-46.1333,167.6833,52.83,66,26,4.21
67,2051523,Bratsk,RU,56.1325,101.6142,79.29,45,62,6.67
68,686090,Asău,RO,46.4333,26.4,67.93,78,77,4.34
69,4020109,Atuona,PF,-9.8,-139.0333,78.1,72,46,22.88
70,3361934,Saldanha,ZA,-33.0117,17.9442,44.65,90,0,9.57
71,3369157,Cape Town,ZA,-33.9258,18.4232,54.73,85,20,3.0
72,3831208,Qaanaaq,GL,77.484,-69.3632,41.97,91,100,9.31
73,3448903,São João da Barra,BR,-21.6403,-41.0511,68.14,87,0,12.24
74,1805408,Jinsha,CN,32.0898,121.0735,78.37,95,100,24.43
75,2094746,Kandrian,PG,-6.2167,149.55,81.5,83,96,9.44
76,2163355,Hobart,AU,-42.8794,147.3294,59.97,56,75,4.0
77,777019,Vardø,NO,70.3705,31.1107,44.8,86,43,2.37
78,3471368,Astorga,BR,-23.2325,-51.6656,64.8,45,6,4.76
79,2125693,Evensk,RU,61.95,159.2333,62.58,63,93,7.94
80,2140466,Moindou,NC,-21.6924,165.677,75.15,59,6,16.78
81,1862505,Hirara,JP,24.8,125.2833,84.47,89,75,5.75
82,1309937,Pyn U Lwin,MM,22.0333,96.4667,68.86,93,100,2.06
83,2173911,Broken Hill,AU,-31.95,141.4333,67.71,24,5,21.85
84,5106841,Albany,US,42.6001,-73.9662,65.86,81,0,4.12
85,637292,Savonlinna,FI,61.8699,28.88,62.65,88,0,1.14
86,964420,Port Elizabeth,ZA,-33.918,25.5701,61.09,33,0,6.91
87,5850554,Makakilo City,US,21.3469,-158.0858,82.04,59,75,12.66
88,133595,Gerāsh,IR,27.6652,54.1371,78.94,28,60,3.13
89,3131500,Visnes,NO,59.3556,5.2242,62.62,94,75,9.22
90,593733,Ukmerge,LT,55.25,24.75,66.6,73,94,10.56
91,6089245,Norman Wells,CA,65.282,-126.8329,64.44,55,75,6.91
92,1633419,Padang,ID,-0.9492,100.3543,86.05,68,8,2.68
93,3386213,Touros,BR,-5.1989,-35.4608,72.5,90,4,8.84
94,4589207,Newberry,US,34.2746,-81.6187,73.54,91,100,2.15
95,3985710,Cabo San Lucas,MX,22.8909,-109.9124,83.57,74,1,8.99
96,5924351,Clyde River,CA,70.4692,-68.5914,35.83,100,75,3.44
97,2206939,Bluff,NZ,-46.6,168.3333,52.81,70,20,19.35
98,5849297,Kīhei,US,20.785,-156.4656,79.92,78,40,25.32
99,3146684,Lyngdal,NO,58.1376,7.07,64.22,87,100,5.84
100,3652764,Puerto Ayora,EC,-0.7393,-90.3518,71.55,87,43,7.0
101,6170031,Tuktoyaktuk,CA,69.4541,-133.0374,50.0,76,75,9.22
102,2171099,Codrington,AU,-38.2667,141.9667,57.4,61,100,23.96
103,2396518,Port-Gentil,GA,-0.7193,8.7815,74.08,81,92,9.35
104,2219235,Ubari,LY,26.5921,12.7805,78.82,23,23,7.54
105,4035715,Avarua,CK,-21.2078,-159.775,77.05,78,75,5.75
106,1712961,Gigmoto,PH,13.7796,124.39,87.31,71,100,14.43
107,934322,Mahébourg,MU,-20.4081,57.7,70.09,83,40,11.5
108,3421719,Narsaq,GL,60.9167,-46.05,50.22,93,84,4.94
109,3423146,Ilulissat,GL,69.2167,-51.1,59.02,55,20,18.41
110,1732871,Singkang,MY,2.1006,102.7994,73.29,58,31,6.91
111,3347019,Mossamedes,AO,-15.1961,12.1522,63.75,78,0,3.4
112,3466704,Castro,BR,-24.7911,-50.0119,57.45,62,46,5.1
113,1507390,Dikson,RU,73.5069,80.5464,38.97,99,100,13.42
114,3451241,Rio Brilhante,BR,-21.8019,-54.5464,72.82,43,4,6.33
115,293842,Kiryat Gat,IL,31.61,34.7642,75.81,82,0,2.26
116,6165406,Thompson,CA,55.7435,-97.8558,57.36,72,20,0.0
117,2108857,Gizo Government Station,SB,-8.103,156.8419,83.46,74,24,6.26
118,3424607,Tasiilaq,GL,65.6145,-37.6368,35.01,89,28,5.14
119,2121025,Srednekolymsk,RU,67.45,153.6833,56.53,44,95,18.3
120,2288829,Gagnoa,CI,6.1293,-5.9437,70.38,93,97,2.82
121,286245,Sur,OM,22.5667,59.5289,94.17,47,47,13.51
122,5927969,Corner Brook,CA,48.9667,-57.9484,60.58,93,97,6.17
123,5880054,Barrow,US,71.2906,-156.7887,48.22,93,90,9.22
124,4015938,Villa Juárez,MX,24.6536,-107.5411,81.9,64,75,11.5
125,2173323,Bundaberg,AU,-24.85,152.35,73.69,46,0,8.05
126,5746545,Portland,US,45.5234,-122.6762,79.9,51,20,3.0
127,4036284,Alofi,NU,-19.0595,-169.9187,80.49,69,40,5.75
128,3407010,Assaré,BR,-6.8744,-39.875,71.26,65,30,4.47
129,4033557,Tautira,PF,-17.7333,-149.15,80.62,75,23,7.52
130,3899539,Antofagasta,CL,-23.65,-70.4,56.48,76,25,7.7
131,2123814,Leningradskiy,RU,69.3833,178.4167,40.69,83,86,9.62
132,544084,Koslan,RU,63.4564,48.8989,48.87,69,88,11.45
133,2017155,Saskylakh,RU,71.9167,114.0833,62.53,55,99,9.24
134,1583992,Turan,VN,16.0678,108.2208,98.58,39,20,5.75
135,281133,Gaza,PS,31.5,34.4667,76.6,79,1,3.69
136,3471451,Arraial do Cabo,BR,-22.9661,-42.0278,69.62,87,0,22.97
137,1337605,Mahibadhoo,MV,3.7833,72.9667,82.38,73,89,10.56
138,2715953,Eskilstuna,SE,59.3666,16.5077,64.15,87,70,3.0
139,1885823,Jiangyou,CN,31.7667,104.7167,87.94,50,100,0.92
140,3592086,Ocós,GT,14.5094,-92.1933,80.74,75,100,3.91
141,2123979,Kuril'sk,RU,45.2333,147.8833,67.23,91,96,5.95
142,3354898,Okahandja,NA,-21.9833,16.9167,50.31,54,0,9.62
143,1702265,Mamburao,PH,13.25,120.6667,81.68,86,81,15.05
144,2071860,Esperance,AU,-33.8667,121.9,58.84,70,62,37.69
145,3405215,Bonfim,BR,3.0833,-59.95,75.2,87,54,4.09
146,1855342,Nishihara,JP,26.1842,127.7558,83.5,90,90,17.27
147,5955084,Foam Lake,CA,51.65,-103.5343,62.62,43,2,5.91
148,2194098,Ahipara,NZ,-35.1667,173.1667,57.09,71,3,15.64
149,3652758,Puerto Baquerizo Moreno,EC,-0.9,-89.6,70.59,77,59,10.94
150,3131824,Vigrestad,NO,58.5667,5.7,63.43,94,100,5.08
151,2629833,Husavik,IS,66.0449,-17.3389,49.91,80,94,2.51
152,2644605,Lerwick,GB,60.1545,-1.1494,55.4,99,100,10.38
153,172515,Abu Samrah,SY,35.3029,37.1841,78.15,52,0,7.72
154,3374351,Pombas,CV,17.1503,-25.0201,73.18,83,46,9.86
155,5380437,Pacific Grove,US,36.6177,-121.9166,59.38,87,90,1.99
156,3899695,Ancud,CL,-41.8697,-73.8203,42.33,78,30,3.53
157,1806840,Huilong,CN,31.8111,121.655,77.99,94,100,30.87
158,2035715,Mudanjiang,CN,44.5833,129.6,95.45,41,100,1.07
159,2729907,Longyearbyen,SJ,78.2186,15.6401,42.64,93,90,1.14
160,5954718,Flin Flon,CA,54.7682,-101.865,62.53,49,28,0.6
161,1715335,Davila,PH,18.4726,120.5763,84.18,86,100,26.51
162,1254046,Tura,IN,25.5198,90.2201,82.31,86,100,5.93
163,4500920,Brigantine,US,39.4101,-74.3646,74.53,89,1,0.0
164,2122090,Pevek,RU,69.7008,170.3133,36.48,88,75,19.24
165,2718393,Magnor,SE,59.9511,12.1996,63.21,93,90,3.4
166,3459795,João Neiva,BR,-19.7575,-40.3856,56.01,83,4,2.26
167,3404558,Cabedelo,BR,-6.9811,-34.8339,72.27,84,8,7.74
168,4034551,Faanui,PF,-16.4833,-151.75,79.14,72,65,9.26
169,140380,Bojnourd,IR,37.4747,57.329,75.15,69,0,4.61
170,3919715,Colquiri,BO,-17.4167,-67.1333,34.52,58,35,3.11
171,2126123,Chokurdakh,RU,70.6333,147.9167,45.64,61,100,13.24
172,2074865,Carnarvon,AU,-24.8667,113.6333,73.47,56,40,14.97
173,5993072,Kitimat,CA,54.0524,-128.6534,58.91,88,91,3.71
174,6144312,Sept-Îles,CA,50.2001,-66.3821,63.05,94,90,6.91
175,2126199,Cherskiy,RU,68.75,161.3,51.28,52,12,23.13
176,5937252,Deer Lake,CA,49.1667,-57.4316,60.66,88,75,2.3
177,1263752,Māngrol,IN,21.1167,70.1167,82.76,83,100,22.64
178,1485997,Yeniseysk,RU,58.4497,92.1703,69.49,93,90,7.43
179,6167125,Tobermory,CA,45.2501,-81.6665,60.31,77,7,9.93
180,1803365,Linqiong,CN,30.4159,103.4609,84.02,84,100,5.57
181,4794814,Wyndham,US,37.6985,-77.6125,72.63,89,40,1.01
182,6145890,Shelburne,CA,44.0787,-80.2041,62.85,60,0,5.37
183,496561,Sernur,RU,56.9333,49.1536,61.93,72,84,12.01
184,3450083,Santa Maria,BR,-29.6842,-53.8069,54.7,94,90,4.61
185,2092164,Lorengau,PG,-2.0226,147.2712,84.09,72,77,3.31
186,3883457,Lebu,CL,-37.6167,-73.65,45.0,79,60,17.54
187,1505991,Igarka,RU,67.4667,86.5833,81.3,46,80,19.1
188,610864,Khani,GE,41.9563,42.9566,63.97,99,100,1.52
189,3355595,Mariental,NA,-24.6333,17.9667,47.77,46,0,12.97
190,6185377,Yellowknife,CA,62.456,-114.3525,57.92,82,75,5.99
191,3418910,Upernavik,GL,72.7868,-56.1549,47.32,87,100,12.8
192,5546220,Saint George,US,37.1041,-113.5841,76.28,79,1,3.44
193,3468014,Camaquã,BR,-30.8511,-51.8122,53.11,96,100,8.46
194,4893392,Galesburg,US,40.9478,-90.3712,71.71,83,1,0.0
195,6096551,Pangnirtung,CA,66.1451,-65.7125,48.85,95,88,0.87
196,2514651,Los Llanos de Aridane,ES,28.6585,-17.9182,66.13,96,75,13.8
197,1735106,George Town,MY,5.4112,100.3354,86.72,78,40,1.01
198,1519030,Chu,KZ,43.5983,73.7614,85.19,35,0,12.37
199,2270385,Camacha,PT,33.0833,-16.3333,69.21,78,40,12.66
200,5282297,Bethel,US,41.3712,-73.414,69.13,86,1,5.75
201,3843123,Neuquén,AR,-38.9516,-68.0591,39.09,56,0,4.61
202,1490591,Suslovo,RU,56.2167,88.1167,60.62,84,99,10.87
203,2138522,Poya,NC,-21.35,165.15,75.04,50,3,12.64
204,4013679,Coahuayana Viejo,MX,18.7333,-103.6833,79.16,90,68,1.36
205,1848976,Wajima,JP,37.4,136.9,84.88,65,75,5.75
206,2152659,Port Macquarie,AU,-31.4333,152.9167,67.62,49,2,10.07
207,5972291,Havre-St-Pierre,CA,50.2334,-63.5986,57.56,100,75,0.0
208,153759,Misungwi,TZ,-2.85,33.0833,64.13,52,33,10.22
209,2033630,Xiongyue,CN,40.1774,122.1228,85.15,61,96,3.89
210,6541964,Gela,IT,37.0803,14.2307,76.95,57,0,2.35
211,6167817,Torbay,CA,47.6666,-52.7314,54.45,93,1,6.91
212,3355672,Lüderitz,NA,-26.6481,15.1594,59.29,63,0,7.09
213,5882953,Aklavik,CA,68.2191,-135.0107,59.83,85,100,3.44
214,933521,Lobatse,BW,-25.2167,25.6667,31.32,61,0,4.45
215,3388456,São José da Coroa Grande,BR,-8.8978,-35.1478,73.63,88,48,6.73
216,609919,Quryq,KZ,43.2,51.65,83.91,29,91,24.83
217,2297810,Mumford,GH,5.2618,-0.759,75.69,76,99,10.98
218,713743,Yakymivka,UA,46.6897,35.1536,73.96,54,68,7.02
219,768216,Konstancin-Jeziorna,PL,52.0938,21.1176,66.94,95,28,3.44
220,1496503,Noyabrsk,RU,63.1994,75.4507,57.56,60,79,16.04
221,1490256,Talnakh,RU,69.4865,88.3972,81.36,47,99,13.6
222,2094342,Kavieng,PG,-2.5744,150.7967,84.33,67,37,4.54
223,1185251,Lālmohan,BD,22.3384,90.7419,84.16,77,97,7.76
224,5905393,Bonavista,CA,48.6499,-53.1147,55.4,93,1,12.39
225,501847,Rochegda,RU,62.8,43.25,50.77,71,72,7.56
226,3466165,Cidreira,BR,-30.1811,-50.2056,61.75,98,100,8.3
227,5955902,Fort Nelson,CA,58.8053,-122.7002,71.19,43,75,2.3
228,5477090,Lovington,US,32.944,-103.3485,74.25,41,37,7.07
229,245669,Adré,TD,13.4667,22.2,71.11,83,100,8.19
230,3860443,Comodoro Rivadavia,AR,-45.8667,-67.5,44.46,61,75,12.66
231,2058430,Whyalla,AU,-33.0333,137.5833,71.49,24,31,31.07
232,1028918,Pemba,MZ,-12.974,40.5178,63.3,88,40,9.22
233,2278682,Bensonville,LR,6.4461,-10.6125,73.72,92,100,6.64
234,1819729,Hong Kong,HK,22.2855,114.1577,93.27,75,99,11.01
235,6943832,Riviere-au-Renard,CA,48.9957,-64.3971,61.09,95,36,7.85
236,756046,Węgrów,PL,52.3995,22.0163,64.69,89,4,4.54
237,3382160,Cayenne,GF,4.9333,-52.3333,82.09,84,90,3.0
238,2093685,Kokopo,PG,-4.352,152.2633,85.37,64,24,9.44
239,2521665,Arcos de la Frontera,ES,36.7508,-5.8106,66.13,87,0,1.99
240,3449747,Santa Vitória do Palmar,BR,-33.5189,-53.3681,44.8,87,2,7.7
241,4002745,La Cruz,MX,23.9167,-106.9,83.46,88,9,1.99
242,2441530,Madaoua,NE,14.073,5.96,74.86,78,100,9.46
243,2782070,Bad Aussee,AT,47.61,13.7824,56.98,97,98,2.04
244,583345,Aleksandrov Gay,RU,50.147,48.5704,73.33,35,0,8.23
245,3835869,Santiago del Estero,AR,-27.7951,-64.2615,52.36,40,2,6.06
246,3379316,Lethem,GY,3.3803,-59.7968,74.21,90,69,4.63
247,2181625,Te Anau,NZ,-45.4167,167.7167,47.61,73,34,5.64
248,4392354,Jasper,US,37.2001,-94.3502,78.91,80,1,5.75
249,2298264,Mampong,GH,7.0627,-1.4001,67.35,96,85,5.77
250,1855891,Nakamura,JP,32.9833,132.9333,92.19,48,44,1.45
251,897045,Solwezi,ZM,-12.1688,26.3894,46.33,69,100,6.8
252,477940,Ust-Tsilma,RU,65.441,52.1498,45.63,91,100,11.79
253,1805680,Jingdezhen,CN,29.2947,117.2079,78.93,95,100,5.93
254,3620680,Bluefields,NI,12.0137,-83.7635,76.32,92,99,5.32
255,3443061,Chui,UY,-33.6971,-53.4616,44.62,87,9,7.09
256,3674676,Mitú,CO,1.1983,-70.1733,70.63,99,92,0.54
257,2712414,Gävle,SE,60.6745,17.1417,57.99,84,47,2.71
258,5866583,Saint Paul Harbor,US,57.79,-152.4072,62.11,55,75,5.75
259,3840092,Puerto Madryn,AR,-42.7692,-65.0385,41.0,77,49,30.31
260,6089404,North Battleford,CA,52.7834,-108.2847,68.09,64,1,0.0
261,2315026,Kasongo-Lunda,CD,-6.4667,16.8167,62.76,45,77,2.06
262,3639898,Guatire,VE,10.4762,-66.5427,78.21,98,87,2.59
263,739598,Sinop Province,TR,41.7711,34.8709,65.23,86,15,4.88
264,4362001,Mayo,US,38.8876,-76.5119,75.31,89,45,6.35
265,2610343,Vestmanna,FO,62.1564,-7.1664,49.12,100,75,6.91
266,3372760,Praia da Vitória,PT,38.7333,-27.0667,68.25,94,75,11.18
267,3663684,Lábrea,BR,-7.2586,-64.7981,78.22,54,33,1.79
268,5354943,Half Moon Bay,US,37.4636,-122.4286,62.02,80,1,1.01
269,3395062,Maués,BR,-3.3836,-57.7186,74.14,65,78,2.86
270,933995,Souillac,MU,-20.5167,57.5167,70.18,83,40,11.5
271,1698289,Pundaguitan,PH,6.3711,126.1689,84.6,75,98,18.52
272,2036959,Heishan,CN,41.6892,122.1128,87.22,60,54,8.59
273,1261853,Narasannapeta,IN,18.4167,84.05,91.54,54,88,10.69
274,2450849,Sokolo,ML,14.7328,-6.1219,76.87,83,100,14.63
275,2167426,Emerald,AU,-23.5333,148.1667,73.54,33,0,9.22
276,2132606,Samarai,PG,-10.6167,150.6667,78.24,89,100,12.8
277,2966753,Ballinasloe,IE,53.3275,-8.2194,56.34,97,97,7.25
278,4255151,Bud,US,39.447,-86.1758,71.64,83,0,6.73
279,1489401,Toora-Khem,RU,52.4675,96.11,66.96,85,97,0.98
280,485660,Tsimmerbude,RU,54.675,20.1347,62.65,94,76,4.99
281,2120612,Tigil',RU,57.8,158.6667,57.31,94,100,19.51
282,1510916,Barabinsk,RU,55.3571,78.357,63.07,52,1,9.51
283,6115187,Quesnel,CA,52.9999,-122.5029,68.5,73,1,3.44
284,2180063,Waiouru,NZ,-39.4833,175.6667,40.19,90,77,10.33
285,2134814,Sola,VU,-13.8833,167.55,80.28,78,69,17.52
286,3629710,Puerto Ayacucho,VE,5.6639,-67.6236,72.75,94,98,2.24
287,2138592,Pouembout,NC,-21.1333,164.9,75.63,50,4,11.74
288,4512214,Franklin,US,39.9667,-83.0166,69.51,77,1,0.0
289,3175096,Laas,IT,46.6166,10.7002,59.09,95,100,1.99
290,1636426,Manggar,ID,-2.8833,108.2667,83.64,68,94,13.42
291,2021017,Kysyl-Syr,RU,63.8986,122.7617,77.72,34,6,9.53
292,2963295,Killybegs,IE,54.6333,-8.45,58.44,94,100,7.4
293,4047434,Russell,US,32.3502,-85.1999,77.58,92,20,0.0
294,1862415,Kumano,JP,34.3442,132.5894,87.66,56,63,0.51
295,4012593,Creel,MX,27.75,-107.6333,57.47,88,100,3.83
296,1651810,Airai,TL,-8.9266,125.4092,77.27,29,68,4.9
297,3837702,San Fernando del Valle de Catamarca,AR,-28.4696,-65.7852,53.76,62,1,1.9
298,3437443,Pozo Colorado,PY,-23.4923,-58.7972,63.73,84,99,13.42
299,3372707,Ribeira Grande,PT,38.5167,-28.7,70.99,89,96,8.95
300,6162949,Terrace,CA,54.5163,-128.6035,57.11,82,90,18.41
301,2098329,Daru,PG,-9.0763,143.2092,78.64,80,89,15.73
302,1815656,Changli,CN,39.7042,119.1506,82.49,75,67,10.58
303,55671,Kismayo,SO,-0.3582,42.5454,75.47,81,83,17.05
304,4026082,Lázaro Cárdenas,MX,17.9583,-102.2,81.03,83,65,1.19
305,2961459,Skibbereen,IE,51.55,-9.2667,57.0,86,31,11.92
306,6071900,Melita,CA,49.2681,-100.9967,68.18,35,0,14.97
307,2088143,Porgera,PG,-5.4667,143.2,48.16,98,92,1.16
308,2070998,Geraldton,AU,-28.7667,114.6,66.61,59,90,21.85
309,286621,Salalah,OM,17.0151,54.0924,78.89,89,75,9.22
310,290030,Doha,QA,25.2867,51.5333,96.03,71,12,4.61
311,2332453,Lagos,NG,6.5833,3.75,77.32,76,97,6.98
312,2129163,Mombetsu,JP,44.3525,143.3525,75.22,78,20,8.05
313,2013727,Vanavara,RU,60.34,102.2797,86.45,24,3,8.95
314,2412408,Nioro,GM,13.35,-15.75,75.85,88,33,4.92
315,1278985,Alappuzha,IN,9.49,76.3264,80.01,79,100,7.27
316,3421193,Paamiut,GL,61.994,-49.6678,44.74,93,100,12.3
317,4031637,Lavrentiya,RU,65.5833,-171.0,44.87,99,100,4.36
318,1259385,Port Blair,IN,11.6667,92.75,84.9,78,77,20.74
319,986717,Kruisfontein,ZA,-34.0033,24.7314,68.88,26,8,21.18
320,3694112,Paita,PE,-5.0892,-81.1144,68.04,83,80,14.18
321,5044290,Saint Anthony,US,45.0205,-93.218,80.22,73,1,1.01
322,536156,Leninsk,RU,48.7119,45.1994,75.06,31,24,10.07
323,3874579,Purranque,CL,-40.9167,-73.1667,36.73,96,42,3.78
324,1267390,Kavaratti,IN,10.5669,72.642,81.82,78,100,19.24
325,3628473,San Cristobal,VE,7.7669,-72.225,65.07,97,90,2.46
326,1071296,Antalaha,MG,-14.9003,50.2788,68.02,81,61,9.35
327,7117100,Vila,PT,42.0304,-8.1588,51.51,92,17,2.66
328,3462103,Grão Mogol,BR,-16.5594,-42.8897,59.65,70,72,2.91
329,6322927,Pontal do Paraná,BR,-25.6533,-48.5128,66.72,70,45,4.45
330,2458334,Douentza,ML,14.9951,-2.9517,82.4,62,100,3.47
331,5838199,Sheridan,US,44.8333,-106.9173,76.87,39,1,1.99
332,1855476,Nichinan,JP,31.6,131.3667,83.88,59,0,5.46
333,2577164,Orodara,BF,10.9492,-4.9342,75.58,90,37,6.26
334,3921141,Charagua,BO,-19.8,-63.2167,62.1,56,61,12.97
335,5232592,Vermillion,US,42.7794,-96.9292,78.08,50,38,14.14
336,3422683,Kangaatsiaq,GL,68.3065,-53.4641,47.07,90,99,7.56
337,2128975,Nemuro,JP,43.3236,145.575,70.23,99,100,8.75
338,2018735,Nyurba,RU,63.2842,118.3319,85.84,43,0,5.95
339,3696183,Iquitos,PE,-3.7481,-73.2472,77.04,94,75,2.3
340,964712,Plettenberg Bay,ZA,-34.0527,23.3716,68.76,30,66,22.95
341,900056,Nyimba,ZM,-14.5566,30.8149,55.13,80,76,4.05
342,4946620,Palmer,US,42.1584,-72.3287,66.97,84,1,0.0
343,98182,Baghdad,IQ,33.3406,44.4009,87.71,30,0,9.22
344,3361142,Springbok,ZA,-29.6643,17.8865,51.85,46,0,6.6
345,367544,Sawākin,SD,19.1059,37.3321,90.3,56,18,13.82
346,1623197,Tual,ID,-5.6667,132.75,81.63,77,62,17.27
347,3674292,Mosquera,CO,4.7059,-74.2302,51.89,93,75,6.91
348,88834,Tūkrah,LY,32.5341,20.5791,76.44,67,0,15.84
349,5847411,Kahului,US,20.8947,-156.47,79.99,78,40,25.32
350,2206874,Waipawa,NZ,-41.4122,175.5153,46.65,88,100,13.0
351,1272864,Dhārchula,IN,29.85,80.5333,76.5,95,97,1.83
352,1052373,Beira,MZ,-19.8436,34.8389,62.69,82,75,6.91
353,3393536,Olinda,BR,-8.0089,-34.8553,69.53,88,75,4.61
354,2121385,Severo-Kuril'sk,RU,50.6789,156.125,61.63,88,84,9.53
355,2654092,Caernarfon,GB,53.1413,-4.2702,59.61,48,75,2.3
356,538505,Kurush,RU,41.2841,47.8345,60.37,66,1,1.83
357,580850,Arsk,RU,56.0915,49.8778,62.38,66,78,9.95
358,2095038,Kainantu,PG,-6.2887,145.8655,70.52,69,82,4.74
359,3452483,Prado,BR,-17.3411,-39.2208,68.56,89,11,5.12
360,1718517,Caramay,PH,10.1815,119.236,89.19,57,73,10.2
361,4005870,General Cepeda,MX,25.3833,-101.45,76.41,42,24,6.22
362,3530599,Ciudad del Carmen,MX,18.6333,-91.8333,82.65,77,26,10.85
363,3356832,Henties Bay,NA,-22.116,14.2845,68.86,34,0,14.41
364,2980080,Saint-François,FR,46.4154,3.9054,58.69,95,0,1.14
365,6447156,Port-de-Bouc,FR,43.4,4.9833,69.91,64,0,4.61
366,4469160,Greenville,US,35.6127,-77.3663,72.23,96,40,0.0
367,5557293,Sitka,US,57.0531,-135.33,64.29,63,40,0.0
368,4031742,Egvekinot,RU,66.3167,-179.1667,46.15,91,100,5.57
369,290104,Sitrah,BH,26.1547,50.6206,96.8,59,1,3.44
370,2512186,Puerto del Rosario,ES,28.5004,-13.8627,73.15,68,10,17.27
371,8079926,Labuhan,ID,-6.8844,112.2051,84.61,53,5,5.82
372,524299,Murmashi,RU,68.8154,32.8115,43.21,100,40,0.0
373,3374210,São Filipe,CV,14.8961,-24.4956,74.62,86,29,8.41
374,1684803,Tabuk,PH,17.4189,121.4443,88.79,63,97,2.95
375,5983720,Iqaluit,CA,63.7506,-68.5145,47.7,87,90,1.99
376,3388847,São Félix do Xingu,BR,-6.6447,-51.995,70.93,57,33,1.25
377,4301317,Morehead,US,37.2711,-87.1764,75.43,95,1,0.0
378,2088122,Port Moresby,PG,-9.4431,147.1797,85.42,66,40,19.57
379,1502697,Kondinskoye,RU,59.6481,67.41,65.41,54,39,13.4
380,1337619,Ugoofaaru,MV,5.6667,73.0,81.9,77,95,15.86
381,1529376,Korla,CN,41.7597,86.1469,94.01,16,0,10.09
382,2210247,Tripoli,LY,32.8752,13.1875,76.91,67,0,13.71
383,3384481,Distrikt Brokopondo,SR,4.75,-55.1667,76.75,85,97,5.68
384,3385658,Uruçuí,BR,-7.2294,-44.5561,74.68,48,52,6.46
385,3420846,Qaqortoq,GL,60.7167,-46.0333,50.5,98,84,8.32
386,5859699,College,US,64.8569,-147.8028,68.0,52,75,9.22
387,5404476,Ukiah,US,39.1502,-123.2078,59.56,68,99,3.18
388,3013633,Arrondissement du Havre,FR,49.5833,0.3333,61.9,94,90,11.5
389,1309793,Meiktila,MM,20.8667,95.8667,77.92,83,96,20.36
390,6949678,Taitung City,TW,22.7583,121.1444,93.47,62,75,10.36
391,3374333,Praia,CV,14.9215,-23.5087,75.74,83,20,10.36
392,5110365,Broome,US,42.2506,-75.833,65.08,79,25,2.64
393,2630299,Hofn,IS,64.2539,-15.2082,51.94,92,100,6.76
394,3421319,Nuuk,GL,64.1835,-51.7216,56.01,71,65,3.44
395,5554072,Juneau,US,58.3019,-134.4197,60.73,82,75,6.91
396,556268,Ostrovnoy,RU,68.0531,39.5131,46.13,87,100,20.98
397,1852357,Shimoda,JP,34.6667,138.95,76.08,81,100,5.59
398,1261142,Numāligarh,IN,26.6333,93.75,78.89,96,100,8.21
399,3441483,Nueva Helvecia,UY,-34.3,-57.2333,44.6,53,49,14.25
400,2702261,Kalmar,SE,56.6616,16.3616,67.5,96,40,2.3
401,3036281,Auch,FR,43.65,0.5833,60.64,90,93,2.73
402,1056899,Sambava,MG,-14.2667,50.1667,68.59,81,42,13.69
403,3983805,Santa Rosalía,MX,27.3167,-112.2833,85.71,54,0,4.63
404,1244926,Hambantota,LK,6.1241,81.1185,84.54,79,99,14.97
405,3893629,Coquimbo,CL,-29.9533,-71.3436,51.53,87,0,6.91
406,1274747,Chandia,IN,23.65,80.7,74.55,94,100,14.5
407,5134295,Rome,US,43.2128,-75.4557,66.0,84,1,0.0
408,1629380,Ruteng,ID,-8.6136,120.4721,76.71,44,32,0.98
409,1649150,Bengkulu,ID,-3.8004,102.2655,84.97,56,13,3.38
410,1313479,Loikaw,MM,19.6742,97.2094,69.21,98,100,2.82
411,1856392,Muroto-misakicho,JP,33.2833,134.15,87.84,69,15,3.47
412,2263207,São Teotónio,PT,37.5128,-8.7071,60.69,91,0,3.83
413,1215502,Banda Aceh,ID,5.5577,95.3222,86.9,66,70,12.95
414,3576994,Cockburn Town,TC,21.4612,-71.1419,82.27,85,25,15.52
415,5571109,Lake Shasta,US,40.6804,-122.3708,84.42,32,92,1.01
416,1497142,Novobiryusinskiy,RU,56.9578,97.7076,82.31,39,40,8.3
417,3936456,Lima,PE,-12.0432,-77.0282,61.05,82,90,5.75
418,3430443,Necochea,AR,-38.5473,-58.7368,37.04,70,95,20.54
419,364933,Umm Kaddadah,SD,13.6017,26.6876,75.97,67,73,3.49
420,415189,Aden,YE,12.7794,45.0367,82.54,76,100,2.84
421,2409829,Bumbuna,SL,9.05,-11.7333,72.1,99,100,0.89
422,1855612,Nara,JP,34.6851,135.8049,88.74,50,97,8.01
423,5983626,Invermere,CA,50.5167,-116.0354,71.22,35,0,2.57
424,1256214,Sindgi,IN,16.9167,76.2333,76.96,73,100,19.46
425,3580733,Bodden Town,KY,19.2833,-81.25,80.47,80,40,1.99
426,2120591,Tilichiki,RU,60.4667,166.1,55.71,90,100,8.63
427,4791259,Virginia Beach,US,36.8529,-75.978,72.09,88,90,3.44
428,5554428,Ketchikan,US,55.3422,-131.6461,57.67,94,90,9.22
429,5870133,Nome,US,64.5011,-165.4064,50.07,87,90,11.5
430,4328254,Iberia,US,29.9502,-91.7507,82.51,83,1,0.0
431,5527953,Pampa,US,35.5362,-100.9599,76.62,78,75,18.41
432,1529484,Kumul,CN,42.8,93.45,93.07,15,0,7.36
433,209598,Manono,CD,-7.3,27.4167,65.73,44,85,9.55
434,933734,Gweta,BW,-20.1833,25.2333,42.67,80,0,8.16
435,2079582,Alyangula,AU,-13.8483,136.4192,84.07,54,75,8.05
436,3174050,Province of Mantua,IT,45.1667,10.7833,69.53,84,70,1.01
437,3836669,San Rafael,AR,-34.6177,-68.3301,40.21,51,17,0.38
438,3939168,Huarmey,PE,-10.0681,-78.1522,64.8,88,49,8.84
439,5605242,Rexburg,US,43.826,-111.7897,77.18,38,1,0.0
440,2172797,Cairns,AU,-16.9167,145.7667,80.4,64,75,9.22
441,1106643,Quatre Cocos,MU,-20.2078,57.7625,67.08,77,77,13.4
442,3416888,Grindavik,IS,63.8424,-22.4338,48.54,93,90,10.36
443,3446130,Três de Maio,BR,-27.7733,-54.24,60.89,97,100,9.31
444,3450206,Santa Helena de Goiás,BR,-17.8136,-50.5969,67.64,40,1,3.24
445,5959803,Capreol,CA,46.706,-80.9225,60.91,92,40,9.22
446,2090021,Namatanai,PG,-3.6667,152.4333,84.63,68,23,6.62
447,2063042,Port Hedland,AU,-20.3167,118.5667,80.65,47,91,13.8
448,990930,Kimberley,ZA,-28.7323,24.7623,38.89,60,0,9.22
449,3838233,Salta,AR,-24.7859,-65.4117,51.93,61,90,1.99
450,2738381,Lata,PT,40.1629,-8.3327,62.69,97,62,2.04
451,3522788,Nautla,MX,20.2167,-96.7833,79.11,81,5,5.97
452,2136825,Isangel,VU,-19.55,169.2667,80.71,57,75,9.22
453,1916294,Aojiang,CN,22.9421,116.0359,95.02,58,100,8.52
454,2110460,Yuzawa,JP,39.1667,140.5,78.62,85,99,3.83
455,1505529,Irbeyskoye,RU,55.6428,95.4522,67.51,94,92,9.17
456,3421765,Nanortalik,GL,60.1432,-45.2371,46.53,77,75,9.22
457,2112309,Katsuura,JP,35.1333,140.3,75.47,76,87,16.55
458,1513957,Hazorasp,UZ,41.3194,61.0742,78.64,17,0,14.36
459,2171722,Charters Towers,AU,-20.1,146.2667,77.45,33,15,10.31
460,5606401,Sandpoint,US,48.2766,-116.5533,79.59,24,1,3.44
461,1276023,Bhawānipatna,IN,19.9,83.1667,82.62,70,100,11.63
462,921772,Moroni,KM,-11.7022,43.2551,73.31,75,8,11.21
463,102527,Sakakah,SA,29.9697,40.2064,89.17,27,6,8.21
464,236950,Obo,CF,5.3998,26.4869,67.21,99,100,4.97
465,1259425,Puducherry,IN,11.93,79.83,88.18,56,100,11.03
466,909488,Lukulu,ZM,-14.3707,23.242,49.46,55,100,7.74
467,1490796,Strezhevoy,RU,60.7333,77.5889,57.18,54,44,14.38
468,2377457,Nouadhibou,MR,20.931,-17.0347,69.49,86,4,20.24
469,3728097,Les Cayes,HT,18.2,-73.75,79.36,78,100,5.48
470,3512067,Baní,DO,18.2833,-70.3333,81.86,80,100,5.99
471,2381334,Atar,MR,20.5169,-13.0499,85.17,32,2,0.38
472,1651531,Ambon City,ID,-3.6954,128.1814,82.54,83,20,5.75
473,2362150,Boromo,BF,11.75,-2.9333,74.01,85,98,4.59
474,4938048,Grafton,US,42.207,-71.6856,68.7,84,12,5.91
475,2641434,Northam,GB,51.0333,-4.2167,60.87,96,100,10.22
476,2189630,Hunterville,NZ,-39.9333,175.5667,49.28,90,90,10.87
477,1513131,Navoiy,UZ,40.0844,65.3792,83.68,18,0,20.71
478,3836620,Orán,AR,-23.1322,-64.326,61.34,49,37,2.17
479,3615730,Waspán,NI,14.7419,-83.9717,75.13,95,45,3.02
480,5391295,Salinas,US,36.6777,-121.6555,60.37,80,1,10.36
481,2012530,Zhigansk,RU,66.7697,123.3711,63.52,51,4,17.47
482,3429594,Reconquista,AR,-29.15,-59.65,50.68,63,0,10.51
483,3391889,Pitimbu,BR,-7.4706,-34.8086,72.19,84,33,7.09
484,3155152,Gravdal,NO,68.1214,13.5031,54.63,91,34,8.3
485,529387,Marevo,RU,57.3146,32.0804,64.06,72,0,3.51
486,565289,Donskoye,RU,45.4552,41.9741,75.15,52,100,9.37
487,2191562,Dunedin,NZ,-45.8742,170.5036,55.8,44,6,4.0
488,868355,Kochubey,RU,44.3861,46.5825,79.52,59,100,18.05
489,3146487,Raudeberg,NO,61.9875,5.1352,64.65,90,100,11.83
490,3372472,Vila Franca do Campo,PT,37.7167,-25.4333,70.21,93,91,4.88
491,2447513,Arlit,NE,18.7369,7.3853,89.69,42,94,19.04
492,2260009,Ewo,CG,-0.8725,14.8206,76.78,54,100,5.53
493,5692947,Williston,US,48.147,-103.618,79.59,53,49,1.99
494,5911745,Burns Lake,CA,54.2331,-125.7533,56.62,62,51,5.7
495,1525988,Ayagoz,KZ,47.9714,80.4392,72.79,42,1,22.44
496,2208248,Kaitangata,NZ,-46.2817,169.8464,54.93,48,7,7.11
497,2527087,Tiznit Province,MA,29.5833,-9.5,68.22,74,0,1.25
498,2032201,Bulgan,MN,48.8125,103.5347,69.31,53,98,4.41
499,3650053,Yantzaza,EC,-3.8278,-78.7594,63.88,98,11,1.03
500,1630639,Pringsewu,ID,-5.3582,104.9744,87.69,44,15,5.06
501,1809858,Guangzhou,CN,23.1167,113.25,94.19,41,100,6.55
502,6078359,Moosomin,CA,50.1333,-101.6677,68.07,50,0,5.64
503,4565346,Hatillo,PR,18.4863,-66.8254,79.23,92,46,12.55
504,935214,Saint-Pierre,RE,-21.3393,55.4781,65.88,77,75,5.75
505,5887916,Athabasca,CA,54.7169,-113.2854,70.34,53,55,3.74
506,1786657,Yinchuan,CN,38.4681,106.2731,90.9,20,48,0.51
507,915471,Kalabo,ZM,-14.97,22.6814,47.44,57,100,6.29
508,1513491,Yangi Marg`ilon,UZ,40.4272,71.7189,90.3,23,0,13.8
509,2142316,Yeppoon,AU,-23.1333,150.7333,74.98,69,10,9.78
510,3424901,Aasiaat,GL,68.7098,-52.8699,43.05,96,99,14.41
511,2318123,Yenagoa,NG,4.9247,6.2642,73.63,77,98,4.0
512,1140025,Herat Province,AF,34.5,62.0,84.79,28,0,38.18
513,1688781,City of San Pedro,PH,14.35,121.0167,85.77,76,90,24.16
514,2016307,Solnechnyy,RU,50.7214,136.6319,76.08,83,100,2.77
515,2016733,Shestakovo,RU,56.4915,103.96,86.97,30,32,4.41
516,3420768,Qasigiannguit,GL,68.8193,-51.1922,59.25,82,96,6.71
517,736650,Agía Paraskeví,GR,40.4833,23.05,74.41,70,0,3.0
518,2028028,Aksha,RU,50.2814,113.2867,68.92,62,79,3.76
519,779622,Havøysund,NO,70.9963,24.6622,52.68,75,28,5.03
520,2063036,Port Lincoln,AU,-34.7333,135.8667,60.48,62,90,29.75
521,3665016,Benjamin Constant,BR,-4.3831,-70.0311,75.33,97,58,2.24
522,3393692,Itarema,BR,-2.9248,-39.9167,77.5,80,22,13.49
523,1714733,Dingle,PH,10.9995,122.6711,88.93,61,59,18.14
524,3573374,The Valley,AI,18.217,-63.0578,82.26,75,90,17.63
525,1651103,Atambua,ID,-9.1061,124.8925,85.05,41,57,1.7
526,3934707,Mollendo,PE,-17.0231,-72.0147,59.92,88,95,10.16
527,3932145,Pisco,PE,-13.7,-76.2167,64.45,82,0,10.36
528,3385592,Valença do Piauí,BR,-6.4075,-41.7456,77.0,49,88,6.73
529,1831125,Kampong Thom,KH,12.7111,104.8887,90.52,55,18,11.63
530,2084442,Vanimo,PG,-2.6741,141.3028,85.35,68,47,8.28
531,5843495,Worland,US,44.0169,-107.9554,81.82,21,1,5.75
532,1511997,Aktash,RU,50.3,87.7333,64.33,45,37,1.74
533,3450376,Santa Cecília,BR,-26.9608,-50.4269,60.66,65,100,4.54
534,2121197,Sinegor'ye,RU,62.0788,150.477,60.35,52,67,7.63
535,233093,Kaabong,UG,3.4836,34.1492,61.45,67,99,5.17
536,2025241,Churapcha,RU,62.0025,132.4325,84.96,35,9,10.4
537,3869716,Tocopilla,CL,-22.092,-70.1979,59.47,73,12,7.43
538,88533,Awjilah,LY,29.1081,21.2869,77.86,43,0,7.0
539,1501690,Krutinka,RU,56.0055,71.5113,58.82,60,100,6.6
540,1855540,Naze,JP,28.3667,129.4833,83.32,82,100,13.02
541,3381538,Grand-Santi,GF,4.25,-54.3833,71.28,98,73,1.92
542,1283285,Jumla,NP,29.2747,82.1838,70.41,82,98,3.89
543,2162683,Innisfail,AU,-17.5333,146.0333,84.87,64,99,6.85
544,2181133,Pareora,NZ,-44.4871,171.2132,53.19,82,40,7.7
545,2122262,Palana,RU,59.1167,159.9667,45.07,98,100,21.99
546,496285,Severodvinsk,RU,64.5635,39.8302,51.91,77,23,13.67
547,2918365,Grafenau,DE,48.8577,13.3974,57.49,83,84,1.05
548,3455061,Paranapanema,BR,-23.3886,-48.7228,61.88,41,2,5.39
549,1630058,Karaton,ID,-6.3424,106.1045,84.33,48,11,2.71
550,2451184,Sikasso,ML,10.9167,-7.0,72.41,91,14,4.03
551,6148373,Sioux Lookout,CA,50.1001,-91.917,62.67,88,90,3.44
552,103630,Najrān,SA,17.4924,44.1277,79.45,34,60,5.97
553,3177532,Domodossola,IT,46.1165,8.2931,65.39,93,66,3.24
554,4793846,Williamsburg,US,37.2707,-76.7075,71.35,95,40,4.61
555,3625066,Zaraza,VE,9.3503,-65.3245,72.48,97,99,2.89
556,5826027,Gillette,US,44.2911,-105.5022,80.65,21,40,5.01
557,478297,Usogorsk,RU,63.4106,48.6872,49.59,69,88,11.45
558,2276492,Harper,LR,4.375,-7.7169,75.61,80,100,8.25
559,1504636,Karabash,RU,55.4808,60.2157,61.63,53,9,10.13
560,2184707,Wanaka,NZ,-44.7,169.15,50.11,93,11,1.99
561,924102,Rumphi,MW,-11.0186,33.8575,53.47,79,86,2.26
562,779330,Kautokeino,NO,69.0125,23.0412,58.41,75,39,7.45
563,2013918,Ust-Maya,RU,60.4167,134.5333,85.12,41,4,11.23
564,3109718,Santander,ES,43.4647,-3.8044,63.21,90,40,1.99
565,135423,Shahrud,IR,36.4182,54.9763,82.15,34,4,8.46
566,3394023,Natal,BR,-5.795,-35.2094,73.62,88,40,5.75
567,1214026,Sabang,ID,5.8933,95.3214,83.77,76,70,18.7
568,3893726,Constitución,CL,-35.3333,-72.4167,44.55,68,0,12.26
569,533933,Lovozero,RU,68.005,35.0117,47.8,82,20,6.93
570,1722803,Buluang,PH,13.3068,123.3425,85.69,77,96,17.94
571,2025458,Chernyshevsk,RU,52.5243,117.0174,72.97,68,25,7.92
572,2980043,Arrondissement de Saint-Gaudens,FR,43.0833,0.6667,56.73,91,60,3.24
573,579492,Balakovo,RU,52.0278,47.8007,70.07,47,19,4.9
574,466658,Yukhnov,RU,54.7444,35.2297,67.03,76,19,1.72
575,2210554,Sirte,LY,31.2089,16.5887,77.36,63,0,12.12
576,2355548,Sindou,BF,10.6667,-5.1667,72.45,88,30,4.61
577,3139597,Sistranda,NO,63.7256,8.834,67.96,78,11,8.25
578,5955826,Fort Frances,CA,48.5999,-93.4003,65.39,80,20,6.91
579,779554,Honningsvåg,NO,70.9821,25.9704,40.53,73,23,4.09
580,3617154,Puerto Cabezas,NI,14.0351,-83.3888,78.17,89,14,7.65
581,2638911,Ryde,GB,50.73,-1.1621,59.41,91,100,1.99
582,3454005,Piaçabuçu,BR,-10.4056,-36.4344,72.25,90,40,6.62
583,1540711,Muravlenko,RU,63.7898,74.523,58.93,55,50,12.19
584,2460954,Araouane,ML,18.9048,-3.5265,88.7,51,100,20.38
585,358048,Damietta,EG,31.4165,31.8133,78.69,68,0,5.73
586,1511646,Andra,RU,62.5147,65.8878,53.47,89,91,4.97
587,1563281,Tuy Hoa,VN,13.0833,109.3,95.02,45,20,16.78
588,523392,Naryan-Mar,RU,67.6713,53.087,48.76,77,98,13.82
589,826996,Udarnyy,RU,54.3409,42.8611,65.8,64,51,2.19
590,7082481,Khuzdar,PK,27.7384,66.6434,86.18,50,99,5.32
591,2208425,Zuwārah,LY,32.9312,12.082,78.15,59,0,12.75
592,3137469,Sørland,NO,67.667,12.6934,53.83,94,30,13.53
593,64013,Bosaso,SO,11.2842,49.1816,88.34,38,50,20.0
594,1277897,Bagdogra,IN,26.7,88.3167,88.63,70,100,4.27
595,1785036,Zhangye,CN,38.9342,100.4517,85.21,18,100,1.19
596,3353715,Outjo,NA,-20.1167,16.15,47.79,45,0,10.58
597,3380290,Sinnamary,GF,5.3833,-52.95,77.0,87,72,5.66
598,3445026,Vila Velha,BR,-20.3297,-40.2925,67.95,94,0,4.61
599,4004293,Ixtapa,MX,20.7,-105.2,83.43,70,40,0.0
600,3995236,Mulegé,MX,26.8833,-111.9833,87.33,54,0,1.03
601,1636308,Manokwari,ID,-0.8667,134.0833,84.27,70,48,9.57
602,3572906,Andros Town,BS,24.7,-77.7667,78.76,73,43,10.89
603,1851259,Tahara,JP,34.6667,137.2667,88.29,66,81,10.47
604,2349431,Sabla,NG,12.7525,4.7077,74.01,91,100,9.91
605,792680,Jakovo,RS,44.7534,20.2625,72.12,80,0,0.0
606,2038482,Bamiantong,CN,44.9333,130.5333,93.15,45,99,5.97
607,4803372,Cross Lanes,US,38.4204,-81.7907,72.57,86,40,3.44
608,2038679,Acheng,CN,45.5454,126.977,87.73,47,93,13.76
609,4162539,Lockhart,US,28.6194,-81.4426,79.57,79,1,1.01
